{
"type": "FeatureCollection",
"name": "hoteles_distritos_mas_asaltos",
"crs": { "type": "name", "properties": { "name": "urn:ogc:def:crs:OGC:1.3:CRS84" } },
"features": [
{ "type": "Feature", "properties": { "cat": 1, "NOMBRE": "ACON", "TELEFONO": "2758-1010 / 2758-4099", "FAX": "2758-2924", "DIRECCION": "AVENIDA 3. CALLE 3 100 M ESTE DEL MERCADO CENTRAL", "HABITACION": 39, "PAG_INTERN": "ND", "CATEGORIA_": 1, "CORREO": "ND" }, "geometry": { "type": "Point", "coordinates": [ -83.029111142238094, 9.994575656216455 ] } },
{ "type": "Feature", "properties": { "cat": 5, "NOMBRE": "ALAJUELA", "TELEFONO": "2441-1441 / 2441-6595", "FAX": "2441-7912", "DIRECCION": "25 SUR DEL PARQUE DE ALAJUELA.COSTADO SUR ESTE", "HABITACION": 28, "PAG_INTERN": "www.hotelalajuela.com", "CATEGORIA_": 1, "CORREO": "ND" }, "geometry": { "type": "Point", "coordinates": [ -84.213522151942868, 10.016080765798876 ] } },
{ "type": "Feature", "properties": { "cat": 15, "NOMBRE": "AMBASSADOR", "TELEFONO": "2221-8155 / 2221-8205", "FAX": "2255-3396", "DIRECCION": "PASEO COLON. CALLES 26 Y 28. FRENTE PIZZA HUT", "HABITACION": 74, "PAG_INTERN": "www.hotelambassador.co.cr", "CATEGORIA_": 3, "CORREO": "info@hotelambassador.co.cr" }, "geometry": { "type": "Point", "coordinates": [ -84.091486814516813, 9.934706005270133 ] } },
{ "type": "Feature", "properties": { "cat": 17, "NOMBRE": "AMERICA", "TELEFONO": "2260-92-92 / 2262-26-27", "FAX": "2260-92-93", "DIRECCION": "AVE 2 Y 4 CALLE 0. DE LA IGLESIA INMACULADA 50 METROS SUR.", "HABITACION": 40, "PAG_INTERN": "www.hotelamericacr.com", "CATEGORIA_": 3, "CORREO": "ND" }, "geometry": { "type": "Point", "coordinates": [ -84.116482074347005, 9.997687113218019 ] } },
{ "type": "Feature", "properties": { "cat": 18, "NOMBRE": "AMON PLAZA CLARION", "TELEFONO": "2523-4600", "FAX": "2523-4614", "DIRECCION": "AVE 11 CALLE 3 BIS", "HABITACION": 87, "PAG_INTERN": "http://www.hotelamonplaza.com/", "CATEGORIA_": 4, "CORREO": "info@clarionhotel.com" }, "geometry": { "type": "Point", "coordinates": [ -84.076709025102772, 9.938840704874742 ] } },
{ "type": "Feature", "properties": { "cat": 20, "NOMBRE": "AMSTEL S.A", "TELEFONO": "ND", "FAX": "ND", "DIRECCION": null, "HABITACION": 0, "PAG_INTERN": "ND", "CATEGORIA_": 0, "CORREO": "ND" }, "geometry": { "type": "Point", "coordinates": [ -84.065008220544058, 9.937068578921973 ] } },
{ "type": "Feature", "properties": { "cat": 22, "NOMBRE": "ANGELS", "TELEFONO": "258-8273", "FAX": "ND", "DIRECCION": "BARRIO LA CALIFORNIA", "HABITACION": 0, "PAG_INTERN": "ND", "CATEGORIA_": 0, "CORREO": "ND" }, "geometry": { "type": "Point", "coordinates": [ -84.067915107064849, 9.934627453939406 ] } },
{ "type": "Feature", "properties": { "cat": 24, "NOMBRE": "ARA MACAO S.A", "TELEFONO": "257-6228", "FAX": "ND", "DIRECCION": "CATEDRAL C 25 A 1", "HABITACION": 0, "PAG_INTERN": "ND", "CATEGORIA_": 0, "CORREO": "ND" }, "geometry": { "type": "Point", "coordinates": [ -84.0704400977462, 9.932894981466577 ] } },
{ "type": "Feature", "properties": { "cat": 25, "NOMBRE": "ARANJUEZ S.A", "TELEFONO": "256-1825", "FAX": "ND", "DIRECCION": null, "HABITACION": 0, "PAG_INTERN": "ND", "CATEGORIA_": 0, "CORREO": "ND" }, "geometry": { "type": "Point", "coordinates": [ -84.065722627907604, 9.938562437447105 ] } },
{ "type": "Feature", "properties": { "cat": 46, "NOMBRE": "AURORA HOLIDAY INN", "TELEFONO": "2523-1000", "FAX": "2255-1171 / 2248-3101", "DIRECCION": "AVENIDA 5. CALLE 5", "HABITACION": 200, "PAG_INTERN": "www.aurolahotels.com", "CATEGORIA_": 5, "CORREO": "ND" }, "geometry": { "type": "Point", "coordinates": [ -84.076354622433385, 9.936610114586681 ] } },
{ "type": "Feature", "properties": { "cat": 51, "NOMBRE": "BAHIA DE LOS DELFINES", "TELEFONO": "296-9880", "FAX": "ND", "DIRECCION": null, "HABITACION": 0, "PAG_INTERN": "ND", "CATEGORIA_": 0, "CORREO": "ND" }, "geometry": { "type": "Point", "coordinates": [ -84.133001839271316, 9.962911703876983 ] } },
{ "type": "Feature", "properties": { "cat": 59, "NOMBRE": "BALMORAL", "TELEFONO": "2222-5022 / 2221-1266", "FAX": "2221-7826", "DIRECCION": "AVENIDA CENTRAL. CALLES 7 Y 9", "HABITACION": 112, "PAG_INTERN": "ww.balmoral.co.cr", "CATEGORIA_": 4, "CORREO": "reservas@hotelbalmoral.travel" }, "geometry": { "type": "Point", "coordinates": [ -84.075053233790229, 9.933873549200966 ] } },
{ "type": "Feature", "properties": { "cat": 61, "NOMBRE": "BARCEL PALMA REAL", "TELEFONO": "2290-5060", "FAX": "2290-4160", "DIRECCION": "SABANA NORTE 200 METROS NORTE DEL ICE", "HABITACION": 65, "PAG_INTERN": "www.barcelo.com", "CATEGORIA_": 4, "CORREO": "ND" }, "geometry": { "type": "Point", "coordinates": [ -84.102168750099636, 9.940161225285243 ] } },
{ "type": "Feature", "properties": { "cat": 64, "NOMBRE": "BARCELO SAN JOSE PALACIO", "TELEFONO": "220-2034", "FAX": "220-2036", "DIRECCION": "AUTOPISTA GENERAL CANAS 500 MTS. SURESTE DEL PUENTE JUAN PABLO II", "HABITACION": 254, "PAG_INTERN": "www.barcelo.com", "CATEGORIA_": 5, "CORREO": "ND" }, "geometry": { "type": "Point", "coordinates": [ -84.130801423979335, 9.96451782602616 ] } },
{ "type": "Feature", "properties": { "cat": 66, "NOMBRE": "BEST WESTERN EL SITIO", "TELEFONO": "2666-1211", "FAX": "2666-2059", "DIRECCION": "175 M.OESTE DE ENTRADA PRINCIPAL", "HABITACION": 52, "PAG_INTERN": "www.bestwestern.com", "CATEGORIA_": 3, "CORREO": "ND" }, "geometry": { "type": "Point", "coordinates": [ -85.445443814292517, 10.626265120654915 ] } },
{ "type": "Feature", "properties": { "cat": 67, "NOMBRE": "BEST WESTERN IRAZU", "TELEFONO": "2232-4811 / 22290-9300", "FAX": "2231-6485 / 22520-2259", "DIRECCION": "KM 3 AUTOPISTA GENERAL CANAS", "HABITACION": 325, "PAG_INTERN": "www.webgotravel.com", "CATEGORIA_": 4, "CORREO": "bwireservas@webgotravel.com" }, "geometry": { "type": "Point", "coordinates": [ -84.13642848098975, 9.968619963665796 ] } },
{ "type": "Feature", "properties": { "cat": 70, "NOMBRE": "BEST WESTERN LAS ESPUELAS", "TELEFONO": "2666-0144", "FAX": "2777-0259", "DIRECCION": "2 KMS SUR DE LA ENTRADA PRINCIPAL DE LIBERIA.", "HABITACION": 44, "PAG_INTERN": "www.bestwestern.com", "CATEGORIA_": 3, "CORREO": "bwjbreservas@webgotravel.com" }, "geometry": { "type": "Point", "coordinates": [ -85.434497275393454, 10.612711932164164 ] } },
{ "type": "Feature", "properties": { "cat": 71, "NOMBRE": "BEST WESTERN SAN JOSE DOWN TOWN", "TELEFONO": "2255-4766 / 2290-2321", "FAX": "2255-4613", "DIRECCION": "AVENIDA 7. CALLE 6 Y 8", "HABITACION": 69, "PAG_INTERN": "www.webgotravel.com", "CATEGORIA_": 3, "CORREO": "bwjbreservas@webgotravel.com" }, "geometry": { "type": "Point", "coordinates": [ -84.081523464123393, 9.937577420077266 ] } },
{ "type": "Feature", "properties": { "cat": 76, "NOMBRE": "BOYEROS", "TELEFONO": "2666-0995", "FAX": "2666-2529", "DIRECCION": "DE LA ENTRADA PRINCIPAL DE LIBERIA 100 METROS AL SUR.", "HABITACION": 70, "PAG_INTERN": "www.hotelboyeros.com", "CATEGORIA_": 1, "CORREO": "hboyeros@racsa.co.cr" }, "geometry": { "type": "Point", "coordinates": [ -85.44360359898134, 10.625968927258844 ] } },
{ "type": "Feature", "properties": { "cat": 77, "NOMBRE": "BRAMADERO", "TELEFONO": "2666-0371", "FAX": "2666-0203", "DIRECCION": "25 MTS NORTE DE LA ENTRADA PRINCIPAL DE LIBERIA", "HABITACION": 22, "PAG_INTERN": "ND", "CATEGORIA_": 1, "CORREO": "ND" }, "geometry": { "type": "Point", "coordinates": [ -85.444151908892167, 10.626974487780316 ] } },
{ "type": "Feature", "properties": { "cat": 79, "NOMBRE": "BRITANNIA", "TELEFONO": "2223-6667", "FAX": "2223-6411", "DIRECCION": "AVENIDAS 11 Y 13. CALLE 3. BARRIO AMON", "HABITACION": 24, "PAG_INTERN": "www.hotelbritanniacostarica.com", "CATEGORIA_": 3, "CORREO": "info@hbritannia.com" }, "geometry": { "type": "Point", "coordinates": [ -84.074473441619716, 9.93716242150402 ] } },
{ "type": "Feature", "properties": { "cat": 85, "NOMBRE": "CACTS", "TELEFONO": "2221-2928 / 2221-6546", "FAX": "2221-8616", "DIRECCION": "AVENIDA TERCERA BIS. #2845", "HABITACION": 12, "PAG_INTERN": "www.hotelcacts.com", "CATEGORIA_": 2, "CORREO": "hcacts@racsa.co.cr" }, "geometry": { "type": "Point", "coordinates": [ -84.083809629200076, 9.936332703166373 ] } },
{ "type": "Feature", "properties": { "cat": 93, "NOMBRE": "CARIBBEAN", "TELEFONO": "248-0472", "FAX": "ND", "DIRECCION": "BARRIO AMON", "HABITACION": 0, "PAG_INTERN": "ND", "CATEGORIA_": 0, "CORREO": "ND" }, "geometry": { "type": "Point", "coordinates": [ -84.074338666046287, 9.937912707836677 ] } },
{ "type": "Feature", "properties": { "cat": 99, "NOMBRE": "CASA CONDE", "TELEFONO": "2226-0808 / 2227-4400", "FAX": "2227-4600", "DIRECCION": "COSTADO SUR DEL PARQUE DE LA PAZ", "HABITACION": 110, "PAG_INTERN": "www.grupocasaconde.com", "CATEGORIA_": 4, "CORREO": "ND" }, "geometry": { "type": "Point", "coordinates": [ -84.07112939246754, 9.911115131613656 ] } },
{ "type": "Feature", "properties": { "cat": 104, "NOMBRE": "CASA MORAZAN", "TELEFONO": "2257-4187", "FAX": "2257-4175", "DIRECCION": "BARRIO AMON CALLE 7", "HABITACION": 9, "PAG_INTERN": "www.casamorazan.com", "CATEGORIA_": 2, "CORREO": "anakeith@racsa.co.cr" }, "geometry": { "type": "Point", "coordinates": [ -84.075086495509154, 9.937505574035859 ] } },
{ "type": "Feature", "properties": { "cat": 105, "NOMBRE": "CASA ROLAND", "TELEFONO": "2231-6571", "FAX": "2290-5462", "DIRECCION": "DEL FINAL DEL BLVD. ROHRMOSER DOBLAR A LA IZQUIERDA Y 100 M A MANO DERECHA.", "HABITACION": 15, "PAG_INTERN": "www.casa-roland.com", "CATEGORIA_": 3, "CORREO": "reservations@rolandhotels.com" }, "geometry": { "type": "Point", "coordinates": [ -84.13176764311352, 9.947964768537078 ] } },
{ "type": "Feature", "properties": { "cat": 106, "NOMBRE": "CASA SABANA B & B", "TELEFONO": "2296-3751 / 2232-9140", "FAX": "2232-2876", "DIRECCION": "DE LA MULTIAGENCIA NISSAN 500 M ESTE. AL LLEGAR AL REST. CHICOTE 100 M NORTE. 25 M OESTE Y 200 M NORTE", "HABITACION": 5, "PAG_INTERN": "www.costaricabb.com", "CATEGORIA_": 1, "CORREO": "ND" }, "geometry": { "type": "Point", "coordinates": [ -84.106644052615081, 9.951507400259919 ] } },
{ "type": "Feature", "properties": { "cat": 107, "NOMBRE": "CASA SESENTA Y NUEVE", "TELEFONO": "2256-8879", "FAX": "2256-8879", "DIRECCION": "80 METROS SUR EMBAJADA DE NICARAGUA. SAN JOSE", "HABITACION": 8, "PAG_INTERN": "www.casatua69.com", "CATEGORIA_": 1, "CORREO": "casatua69sur@yahoo.com" }, "geometry": { "type": "Point", "coordinates": [ -84.068816222790147, 9.932278630037683 ] } },
{ "type": "Feature", "properties": { "cat": 114, "NOMBRE": "CENTRO COLON", "TELEFONO": "2257-2580 / 21800-228-5151", "FAX": "2257-2582", "DIRECCION": "COSTADO NORTE DE CENTRO COLON", "HABITACION": 103, "PAG_INTERN": "www.hotelcentrocolon.com", "CATEGORIA_": 3, "CORREO": "info@hotelcentrocolon.com" }, "geometry": { "type": "Point", "coordinates": [ -84.094701686585765, 9.936545843045712 ] } },
{ "type": "Feature", "properties": { "cat": 116, "NOMBRE": "CEOS", "TELEFONO": "2262-2628", "FAX": "2262-2639", "DIRECCION": "DE LA OFICINA DE CORREO 100 M NORTE Y 100 M ESTE", "HABITACION": 10, "PAG_INTERN": "www.hotelamericacr.com", "CATEGORIA_": 1, "CORREO": "ND" }, "geometry": { "type": "Point", "coordinates": [ -84.118157573718761, 10.000257782314852 ] } },
{ "type": "Feature", "properties": { "cat": 120, "NOMBRE": "CHARLY'S PLACE", "TELEFONO": "441-0115 / 385-9891", "FAX": "440-6853", "DIRECCION": "DEL PARQUE CENTRAL DE ALAJUELA 200 METROS NORTE Y 25 ESTE", "HABITACION": 0, "PAG_INTERN": "www.charlysplacehotel.com", "CATEGORIA_": 0, "CORREO": "ND" }, "geometry": { "type": "Point", "coordinates": [ -84.213957239369364, 10.020159449936058 ] } },
{ "type": "Feature", "properties": { "cat": 124, "NOMBRE": "CIUDAD BLANCA HOSTAL", "TELEFONO": "2666-2715 / 2666-3962", "FAX": "2666-4382", "DIRECCION": "200 METROS SUR Y 150 ESTE DE LA ANTIGUA GOBERNACION EN LIBERIA", "HABITACION": 12, "PAG_INTERN": "ND", "CATEGORIA_": 2, "CORREO": "ND" }, "geometry": { "type": "Point", "coordinates": [ -85.436308953696951, 10.627431617972977 ] } },
{ "type": "Feature", "properties": { "cat": 127, "NOMBRE": "COCORI", "TELEFONO": "2233-0081 / 2233-4787", "FAX": "2255-1058", "DIRECCION": "AVENIDA 3. CALLE 16", "HABITACION": 25, "PAG_INTERN": "ND", "CATEGORIA_": 1, "CORREO": "ND" }, "geometry": { "type": "Point", "coordinates": [ -84.086171366768028, 9.936057879459469 ] } },
{ "type": "Feature", "properties": { "cat": 128, "NOMBRE": "COLAYE", "TELEFONO": "2231-2278", "FAX": "2231-2223", "DIRECCION": "SAN JOSE. CALLE MORENOS. FRENTE AL ALMACEN MAURO. SABANA SUR", "HABITACION": 60, "PAG_INTERN": "www.apartotelcolaye.com", "CATEGORIA_": 2, "CORREO": "info@apartotelcolaye.com" }, "geometry": { "type": "Point", "coordinates": [ -84.102794848746839, 9.928951803036087 ] } },
{ "type": "Feature", "properties": { "cat": 132, "NOMBRE": "COLONIAL", "TELEFONO": "2223-0109", "FAX": "2223-1443", "DIRECCION": "AV 2 Y 6. CALLE 11. CASA 452", "HABITACION": 17, "PAG_INTERN": "www.hotelcolonialcr.com", "CATEGORIA_": 2, "CORREO": "info@hotelcolonialcr.com" }, "geometry": { "type": "Point", "coordinates": [ -84.07352357674641, 9.931394810809833 ] } },
{ "type": "Feature", "properties": { "cat": 147, "NOMBRE": "COSTA RICA MORAZAN", "TELEFONO": "2222-4622", "FAX": "2233-3329", "DIRECCION": "AVENIDAS 1 Y 3. CALLE 7", "HABITACION": 41, "PAG_INTERN": "ND", "CATEGORIA_": 3, "CORREO": "ND" }, "geometry": { "type": "Point", "coordinates": [ -84.075780589560068, 9.935316507170274 ] } },
{ "type": "Feature", "properties": { "cat": 148, "NOMBRE": "COSTA RICA TENNIS CLUB", "TELEFONO": "2232-1266 / 2232-1228", "FAX": "2232-3867", "DIRECCION": "SABANA SUR. DE LA CONTRALORIA GENERAL 50 ESTE", "HABITACION": 27, "PAG_INTERN": "www.costaricatennisclub.com", "CATEGORIA_": 3, "CORREO": "info@costaricatennisclub.com" }, "geometry": { "type": "Point", "coordinates": [ -84.100734310462997, 9.932131507312759 ] } },
{ "type": "Feature", "properties": { "cat": 154, "NOMBRE": "CRISTINA", "TELEFONO": "2220-0453", "FAX": "2220-2096", "DIRECCION": "SABANA N. 300 N DEL ICE", "HABITACION": 50, "PAG_INTERN": "www.apartotelcristina.com", "CATEGORIA_": 3, "CORREO": "info@cristina.co.cr" }, "geometry": { "type": "Point", "coordinates": [ -84.10201830105278, 9.941347176608865 ] } },
{ "type": "Feature", "properties": { "cat": 161, "NOMBRE": "DAYSITA CITY AND RESORT", "TELEFONO": "2666 0197 / 2665 4850", "FAX": "2666 8468", "DIRECCION": "COSTADO SUR DEL ESTADIO", "HABITACION": 25, "PAG_INTERN": "www.hoteldaisytaliberia.com", "CATEGORIA_": 1, "CORREO": "daisytaresort@yahoo.es" }, "geometry": { "type": "Point", "coordinates": [ -85.437529800131685, 10.628319110859387 ] } },
{ "type": "Feature", "properties": { "cat": 163, "NOMBRE": "DEL BULEVARD", "TELEFONO": "2257-0022", "FAX": "2257-1517", "DIRECCION": "AVENIDAS CENTRAL Y 2 Y CALLE CENTRAL", "HABITACION": 60, "PAG_INTERN": "ND", "CATEGORIA_": 3, "CORREO": "ND" }, "geometry": { "type": "Point", "coordinates": [ -84.079224250096146, 9.933659357441645 ] } },
{ "type": "Feature", "properties": { "cat": 165, "NOMBRE": "DEL REY", "TELEFONO": "2257-7800 / 1800-972-7272", "FAX": "2221-0096", "DIRECCION": "AVENIDA 1. CALLE 9", "HABITACION": 104, "PAG_INTERN": "www.delreyhotel.com", "CATEGORIA_": 3, "CORREO": "info@delreyhotel.com" }, "geometry": { "type": "Point", "coordinates": [ -84.074293623141898, 9.934710466810008 ] } },
{ "type": "Feature", "properties": { "cat": 168, "NOMBRE": "DIPLOMAT", "TELEFONO": "221-8133 / 221-8744", "FAX": "233-7474", "DIRECCION": "AVENIDAS CENTRAL Y 2 Y CALLE 6", "HABITACION": 0, "PAG_INTERN": "ND", "CATEGORIA_": 1, "CORREO": "ND" }, "geometry": { "type": "Point", "coordinates": [ -84.080372850752866, 9.935130766079089 ] } },
{ "type": "Feature", "properties": { "cat": 176, "NOMBRE": "DON FRADRIQUE", "TELEFONO": "2225-8186 / 2224-7583", "FAX": "2224-9746", "DIRECCION": "AVENIDA 8. CALLE 37", "HABITACION": 20, "PAG_INTERN": "www.hoteldonfadrique.com", "CATEGORIA_": 3, "CORREO": "ND" }, "geometry": { "type": "Point", "coordinates": [ -84.090651171738315, 9.931031146088635 ] } },
{ "type": "Feature", "properties": { "cat": 178, "NOMBRE": "DONA INES", "TELEFONO": "22227443 / 22227553", "FAX": "22235426", "DIRECCION": "AVENIDAS 2 Y 4. CALLE 11", "HABITACION": 20, "PAG_INTERN": "www.donaines.com", "CATEGORIA_": 2, "CORREO": "ND" }, "geometry": { "type": "Point", "coordinates": [ -84.073647016003306, 9.931880237170075 ] } },
{ "type": "Feature", "properties": { "cat": 179, "NOMBRE": "DORAL", "TELEFONO": "2233-0665 / 2233-9410", "FAX": "2233-4827", "DIRECCION": "AVENIDA 4. CALLES 6 Y 8", "HABITACION": 42, "PAG_INTERN": "www.hoteldoralcr.com", "CATEGORIA_": 1, "CORREO": "reservas@hoteldoralcr.com" }, "geometry": { "type": "Point", "coordinates": [ -84.082944716529141, 9.932560782035534 ] } },
{ "type": "Feature", "properties": { "cat": 183, "NOMBRE": "DUNN INN", "TELEFONO": "2257-9532 / 2222-3232", "FAX": "2221-4596", "DIRECCION": "BARRIO AMON CALLE 5 AVENIDA 11", "HABITACION": 24, "PAG_INTERN": "www.hoteldunninn.com", "CATEGORIA_": 3, "CORREO": "reservdunn@racsa.co.cr" }, "geometry": { "type": "Point", "coordinates": [ -84.075183884283874, 9.938306948560468 ] } },
{ "type": "Feature", "properties": { "cat": 189, "NOMBRE": "EDELWEISS", "TELEFONO": "221-9702", "FAX": "222-1241", "DIRECCION": "AVENIDA 9. CALLES 13 Y 15.  #1553. BARRIO OTOYA", "HABITACION": 0, "PAG_INTERN": "www.edelweisshotel.com", "CATEGORIA_": 3, "CORREO": "ND" }, "geometry": { "type": "Point", "coordinates": [ -84.072896077020232, 9.936973445213823 ] } },
{ "type": "Feature", "properties": { "cat": 195, "NOMBRE": "EL ERIZO", "TELEFONO": "2440-2840 / 2441-2840", "FAX": "2441-2840", "DIRECCION": "100 M. NORTE Y 100 M. OESTE DEL PALI DE BARRIO CRISTO REY", "HABITACION": 18, "PAG_INTERN": "ND", "CATEGORIA_": 1, "CORREO": "ND" }, "geometry": { "type": "Point", "coordinates": [ -84.206441196866095, 10.03343525646166 ] } },
{ "type": "Feature", "properties": { "cat": 208, "NOMBRE": "EL SESTEO", "TELEFONO": "296-1805", "FAX": "296-1865", "DIRECCION": "200 METROS SUR DE MC DONALD'S. SABANA SUR", "HABITACION": 36, "PAG_INTERN": "www.sesteo.com", "CATEGORIA_": 0, "CORREO": "ND" }, "geometry": { "type": "Point", "coordinates": [ -84.098915266026395, 9.929669534525065 ] } },
{ "type": "Feature", "properties": { "cat": 210, "NOMBRE": "EL SITIO", "TELEFONO": "666-1211 / 666-2198", "FAX": "666-2059", "DIRECCION": "LIBERIA", "HABITACION": 54, "PAG_INTERN": "ND", "CATEGORIA_": 2, "CORREO": "ND" }, "geometry": { "type": "Point", "coordinates": [ -85.437641457427674, 10.630743726259096 ] } },
{ "type": "Feature", "properties": { "cat": 221, "NOMBRE": "EUROPA", "TELEFONO": "2222-1222", "FAX": "2221-4609", "DIRECCION": "AVENIDAS 5 Y 3. CALLE O", "HABITACION": 72, "PAG_INTERN": "hoteleuropacr.com", "CATEGORIA_": 3, "CORREO": "ND" }, "geometry": { "type": "Point", "coordinates": [ -84.079190167284651, 9.93603085234817 ] } },
{ "type": "Feature", "properties": { "cat": 230, "NOMBRE": "FLEUR DE LYZ", "TELEFONO": "2223-1206 / 2257-2621", "FAX": "2257-3637", "DIRECCION": "CALLE 13. AVENIDA 2", "HABITACION": 31, "PAG_INTERN": "www.hotelfleurdelys.com", "CATEGORIA_": 3, "CORREO": "reservaciones@hotelfleurdelys.com" }, "geometry": { "type": "Point", "coordinates": [ -84.073307884704263, 9.932641915416745 ] } },
{ "type": "Feature", "properties": { "cat": 245, "NOMBRE": "GRAN  CENTROAMERICANO", "TELEFONO": "2221-3362 / 2221-3955", "FAX": "2221-3714", "DIRECCION": "AVENIDA 2. CALLES 6 Y 8", "HABITACION": 45, "PAG_INTERN": "ND", "CATEGORIA_": 1, "CORREO": "ND" }, "geometry": { "type": "Point", "coordinates": [ -84.08196529341383, 9.933194554754417 ] } },
{ "type": "Feature", "properties": { "cat": 247, "NOMBRE": "GRAN HOTEL COSTA RICA", "TELEFONO": "2221-4000 / 2256-8585", "FAX": "2221-3501 / 2256-7575", "DIRECCION": "AVENIDA 2. CALLES 1 Y 3", "HABITACION": 110, "PAG_INTERN": "www.granhotelcr.com", "CATEGORIA_": 4, "CORREO": "info@grandhotelcostarica.com" }, "geometry": { "type": "Point", "coordinates": [ -84.077752741515596, 9.93264373380504 ] } },
{ "type": "Feature", "properties": { "cat": 248, "NOMBRE": "GRANO DE ORO", "TELEFONO": "2255-3322", "FAX": "2221-2782", "DIRECCION": "AVENIDAS 2 Y 4. CALLE 30 PASEO COLON", "HABITACION": 40, "PAG_INTERN": "www.hotelgranodeoro.com", "CATEGORIA_": 4, "CORREO": "info@hotelgranodeoro.com" }, "geometry": { "type": "Point", "coordinates": [ -84.09310954452306, 9.932887029209496 ] } },
{ "type": "Feature", "properties": { "cat": 249, "NOMBRE": "GREEN HOUSE", "TELEFONO": "2258-0102 / 2258-9193", "FAX": "2258-9084", "DIRECCION": "PLAZA GONZALEZ VIQUEZ. CALLE 11 . AVENIDA 16 Y 18", "HABITACION": 17, "PAG_INTERN": "www.greenhousehostel.altervista.org", "CATEGORIA_": 1, "CORREO": "oriettaaraya@infowebco.net" }, "geometry": { "type": "Point", "coordinates": [ -84.071874586650736, 9.925319052062582 ] } },
{ "type": "Feature", "properties": { "cat": 258, "NOMBRE": "HAPPY LAND", "TELEFONO": "795-2828", "FAX": "795-2544", "DIRECCION": "PLAYA BONITA. CARRETERA HACIA MOIN. LIMON. CONTIGUO A RESIDENCIAS DE LOMAS DE RECOPE", "HABITACION": 0, "PAG_INTERN": "www.hotelhappyland.net/espanol/ubic.html", "CATEGORIA_": 0, "CORREO": "info@hotelhappyland.com" }, "geometry": { "type": "Point", "coordinates": [ -83.057761435715207, 10.008859160147436 ] } },
{ "type": "Feature", "properties": { "cat": 264, "NOMBRE": "HOJARASCAS", "TELEFONO": "2261-3649 /  2260-7781", "FAX": "2263-3407", "DIRECCION": "ENTRE CALLE 4-6. AVENIDA 8. HEREDIA CENTRO. 50 METROS ESTE IGLESIA LOS ANGELES. FRENTE A LA SALIDA PRINCIPAL. DEL PARQUEO DEL SUPERMERCADO MAS X MENOS.", "HABITACION": 12, "PAG_INTERN": "www.hotelhojarascas.com", "CATEGORIA_": 2, "CORREO": "info@hotelhojarascas.com" }, "geometry": { "type": "Point", "coordinates": [ -84.117400977632769, 10.001189275733058 ] } },
{ "type": "Feature", "properties": { "cat": 268, "NOMBRE": "INCA REAL", "TELEFONO": "2233-8883 / 2223-8991", "FAX": "2222-5318", "DIRECCION": "AVENIDA 11 ENTRE CALLES 3 Y 5. BARRIO AMON", "HABITACION": 31, "PAG_INTERN": "www.hotelincareal.com", "CATEGORIA_": 4, "CORREO": "jane@hotelincareal.com" }, "geometry": { "type": "Point", "coordinates": [ -84.075770302451218, 9.938665899706969 ] } },
{ "type": "Feature", "properties": { "cat": 269, "NOMBRE": "ISLA VERDE", "TELEFONO": "2232-5327 / 2232-5203", "FAX": "2220-3337", "DIRECCION": "DE LA CASA DEL EMBAJADOR DE ESTADOS UNIDOS 300 M OESTE", "HABITACION": 20, "PAG_INTERN": "www.hotelislaverde.com", "CATEGORIA_": 2, "CORREO": "islaver@racsa.co.cr" }, "geometry": { "type": "Point", "coordinates": [ -84.13094373804185, 9.948365200238134 ] } },
{ "type": "Feature", "properties": { "cat": 272, "NOMBRE": "JOHNSON", "TELEFONO": "223-7633 / 223-7801", "FAX": "222-3683", "DIRECCION": "AVENIDAS CENTRAL Y 2. CALLE 8", "HABITACION": 0, "PAG_INTERN": "ND", "CATEGORIA_": 0, "CORREO": "ND" }, "geometry": { "type": "Point", "coordinates": [ -84.082041449305009, 9.933824644750381 ] } },
{ "type": "Feature", "properties": { "cat": 273, "NOMBRE": "KAP´S PLACE", "TELEFONO": "2221-1169", "FAX": "2256-4850", "DIRECCION": "CALLE 19 AVENIDA 11 Y 13 BARRIO ARANJUEZ", "HABITACION": 9, "PAG_INTERN": "www.kapsplace.com", "CATEGORIA_": 2, "CORREO": "info@kapsplace.com" }, "geometry": { "type": "Point", "coordinates": [ -84.067172832331593, 9.939062737620407 ] } },
{ "type": "Feature", "properties": { "cat": 282, "NOMBRE": "LA FONDA DE CHARLIE", "TELEFONO": "2231-3912", "FAX": "2296-6357", "DIRECCION": "FRENTE A ENTRADA PRINCIPAL ALBERGUE INS", "HABITACION": 12, "PAG_INTERN": "ND", "CATEGORIA_": 1, "CORREO": "ND" }, "geometry": { "type": "Point", "coordinates": [ -84.118323245278646, 9.949430353511225 ] } },
{ "type": "Feature", "properties": { "cat": 286, "NOMBRE": "LA GRAN VIA", "TELEFONO": "222-7737", "FAX": "222-7205", "DIRECCION": "AVENIDA CENTRAL. CALLE 1 Y 3", "HABITACION": 32, "PAG_INTERN": "ND", "CATEGORIA_": 1, "CORREO": "ND" }, "geometry": { "type": "Point", "coordinates": [ -84.07750959173012, 9.934152798239417 ] } },
{ "type": "Feature", "properties": { "cat": 287, "NOMBRE": "LA GUARIA", "TELEFONO": "2666-0000", "FAX": "2666-4442", "DIRECCION": "LIBERIA. 200 MTS. ESTE DE LA IGLESIA CATOLICA", "HABITACION": 52, "PAG_INTERN": "ND", "CATEGORIA_": 3, "CORREO": "ND" }, "geometry": { "type": "Point", "coordinates": [ -85.43587465217918, 10.631555377633594 ] } },
{ "type": "Feature", "properties": { "cat": 289, "NOMBRE": "LA MANSION BLANCA", "TELEFONO": "2221-4313 / 2257-6198", "FAX": "2222-3743", "DIRECCION": "AVENIDA 10 Y 12. CALLE 9. PASEO DE LOS ESTUDIANTES", "HABITACION": 11, "PAG_INTERN": "ND", "CATEGORIA_": 1, "CORREO": "ND" }, "geometry": { "type": "Point", "coordinates": [ -84.075618335498604, 9.928706654424113 ] } },
{ "type": "Feature", "properties": { "cat": 293, "NOMBRE": "LA PERLA", "TELEFONO": "2232-6153 / 2232-2185", "FAX": "2220-4195", "DIRECCION": "200 MTS OESTE DEL HOSPITAL MEXICO", "HABITACION": 14, "PAG_INTERN": "www.alaperla.com", "CATEGORIA_": 2, "CORREO": "info@alaperla.com" }, "geometry": { "type": "Point", "coordinates": [ -84.112954683095154, 9.953795542979595 ] } },
{ "type": "Feature", "properties": { "cat": 298, "NOMBRE": "LA SABANA", "TELEFONO": "2220-2422", "FAX": "2231-7386", "DIRECCION": "100 ESTE Y 150 NORTE DEL ICE EN LA SABANA", "HABITACION": 32, "PAG_INTERN": "www.apartotel-lasabana.com", "CATEGORIA_": 3, "CORREO": "ND" }, "geometry": { "type": "Point", "coordinates": [ -84.103494968561321, 9.940116882477676 ] } },
{ "type": "Feature", "properties": { "cat": 299, "NOMBRE": "LA SIESTA", "TELEFONO": "2666-0678 / 2666-2532", "FAX": "2666-2532", "DIRECCION": "250 M SUR DE LA FARMACIA LUX. LIBERIA", "HABITACION": 24, "PAG_INTERN": "ND", "CATEGORIA_": 1, "CORREO": "ND" }, "geometry": { "type": "Point", "coordinates": [ -85.439312964331904, 10.629951506909908 ] } },
{ "type": "Feature", "properties": { "cat": 330, "NOMBRE": "MARAGATO", "TELEFONO": "222-7313", "FAX": "222-7205", "DIRECCION": "AVENIDA CENTRAL. DIAGONAL A LA PLAZA DE LA CULTURA", "HABITACION": 29, "PAG_INTERN": "www.hotelmaragato.com", "CATEGORIA_": 0, "CORREO": "ND" }, "geometry": { "type": "Point", "coordinates": [ -84.072331379403735, 9.933573039977123 ] } },
{ "type": "Feature", "properties": { "cat": 333, "NOMBRE": "MARIBU CARIBE", "TELEFONO": "2795-4010 / 2795-2553", "FAX": "2795-3541", "DIRECCION": "CARRETERA A MOIN. PORTETE", "HABITACION": 50, "PAG_INTERN": "ND", "CATEGORIA_": 2, "CORREO": "ND" }, "geometry": { "type": "Point", "coordinates": [ -83.065197619749341, 10.009706418225877 ] } },
{ "type": "Feature", "properties": { "cat": 336, "NOMBRE": "MATAMA", "TELEFONO": "758-1123", "FAX": "758-4499", "DIRECCION": "CARRETERA A PORTETE", "HABITACION": 0, "PAG_INTERN": "ND", "CATEGORIA_": 1, "CORREO": "ND" }, "geometry": { "type": "Point", "coordinates": [ -83.064083644617995, 10.008899516431574 ] } },
{ "type": "Feature", "properties": { "cat": 339, "NOMBRE": "MIAMI", "TELEFONO": "2758-0490", "FAX": "2758-0490", "DIRECCION": "500 M OESTE EL MERCADO DE LIMON", "HABITACION": 32, "PAG_INTERN": "ND", "CATEGORIA_": 1, "CORREO": "ND" }, "geometry": { "type": "Point", "coordinates": [ -83.033681907104821, 9.993258959687319 ] } },
{ "type": "Feature", "properties": { "cat": 353, "NOMBRE": "MUSOC", "TELEFONO": "222-9437 / 223-3388", "FAX": "222-9437", "DIRECCION": "AVENIDAS 1 Y 3. CALLE 16", "HABITACION": 0, "PAG_INTERN": "ND", "CATEGORIA_": 1, "CORREO": "ND" }, "geometry": { "type": "Point", "coordinates": [ -84.071846546803457, 9.93534050202336 ] } },
{ "type": "Feature", "properties": { "cat": 359, "NOMBRE": "NOVO", "TELEFONO": "2233-0320", "FAX": "2233-0515", "DIRECCION": "CALLE 14. AVENIDA CENTRAL Y PRIMERA", "HABITACION": 22, "PAG_INTERN": "ND", "CATEGORIA_": 3, "CORREO": "ND" }, "geometry": { "type": "Point", "coordinates": [ -84.07275771176252, 9.933815632430054 ] } },
{ "type": "Feature", "properties": { "cat": 365, "NOMBRE": "OCCIDENTAL TORREMOLINOS", "TELEFONO": "2222-5266", "FAX": "2255-3167", "DIRECCION": "CALLE 40. AVENIDAS 5 & 7. DE PROCOMER. 200 METROS NORTE", "HABITACION": 84, "PAG_INTERN": "www.occidental-hoteles.com", "CATEGORIA_": 4, "CORREO": "ND" }, "geometry": { "type": "Point", "coordinates": [ -84.096913295024422, 9.939188404136516 ] } },
{ "type": "Feature", "properties": { "cat": 375, "NOMBRE": "PARK (CARIBE)", "TELEFONO": "2758-3476 / 2758-0555", "FAX": "2758-4364", "DIRECCION": "AVENIDA 4. CALLES 2 Y 4", "HABITACION": 35, "PAG_INTERN": "ND", "CATEGORIA_": 3, "CORREO": "ND" }, "geometry": { "type": "Point", "coordinates": [ -83.031210230227387, 9.994731639172489 ] } },
{ "type": "Feature", "properties": { "cat": 376, "NOMBRE": "PARQUE DEL LAGO", "TELEFONO": "2257-8787", "FAX": "2223-1617", "DIRECCION": "50 MTS ESTE DE LA ESTATUA DE LEON CORTEZ. PASEO COLON", "HABITACION": 40, "PAG_INTERN": "www.parquedellago.com", "CATEGORIA_": 4, "CORREO": "info@parquedellago.com" }, "geometry": { "type": "Point", "coordinates": [ -84.097524765876244, 9.93547449929882 ] } },
{ "type": "Feature", "properties": { "cat": 385, "NOMBRE": "PLAZA", "TELEFONO": "2257-1896", "FAX": "2222-2641", "DIRECCION": "AVENIDA CENTRAL. CALLES 2 Y 4", "HABITACION": 40, "PAG_INTERN": "www.hotelplazacr.com", "CATEGORIA_": 1, "CORREO": "reservas@hotelplazacr.com" }, "geometry": { "type": "Point", "coordinates": [ -84.080287651268179, 9.933779661997495 ] } },
{ "type": "Feature", "properties": { "cat": 386, "NOMBRE": "PLAZA REAL", "TELEFONO": "2290-6409", "FAX": "2290-6409", "DIRECCION": "200 MTS SUR Y 50 MTS OESTE BURGER KING", "HABITACION": 10, "PAG_INTERN": "www.plazareal.cr", "CATEGORIA_": 3, "CORREO": "ND" }, "geometry": { "type": "Point", "coordinates": [ -84.108404521561724, 9.95167046360052 ] } },
{ "type": "Feature", "properties": { "cat": 393, "NOMBRE": "PRESIDENTE", "TELEFONO": "2256-1165 / 2222-3022", "FAX": "2221-1205", "DIRECCION": "AVENIDA CENTRAL. CALLE 7", "HABITACION": 100, "PAG_INTERN": "www.hotel-presidente.com", "CATEGORIA_": 4, "CORREO": "info@hotel-presidente.com" }, "geometry": { "type": "Point", "coordinates": [ -84.070576009049375, 9.933603647172179 ] } },
{ "type": "Feature", "properties": { "cat": 404, "NOMBRE": "RAIN FOREST AERIAL TRAM LODGE", "TELEFONO": "2257-5361", "FAX": "2257-6053", "DIRECCION": "50 MINUTOS CAMINO A SAN JOSE", "HABITACION": 10, "PAG_INTERN": "www.rainforestrams.com", "CATEGORIA_": 2, "CORREO": "ND" }, "geometry": { "type": "Point", "coordinates": [ -83.857514335585691, 10.213276001835839 ] } },
{ "type": "Feature", "properties": { "cat": 405, "NOMBRE": "RAMADA PLAZA HERRADURA", "TELEFONO": "2209-9800 / 2209-9841", "FAX": "2209-9822", "DIRECCION": "5 KM AL SUR DEL AEROPUERTO INTERNACIONAL", "HABITACION": 229, "PAG_INTERN": "www.ramadaherradura.com", "CATEGORIA_": 4, "CORREO": "reservaciones@ramadaherradura.com" }, "geometry": { "type": "Point", "coordinates": [ -84.155902226748708, 9.976758320437062 ] } },
{ "type": "Feature", "properties": { "cat": 406, "NOMBRE": "RAMGO APARTOTEL", "TELEFONO": "2232-3823 / 2232-3366", "FAX": "2232-3111", "DIRECCION": "200 OESTE Y 100 SUR DEL TENNIS CLUB", "HABITACION": 16, "PAG_INTERN": "ND", "CATEGORIA_": 0, "CORREO": "ND" }, "geometry": { "type": "Point", "coordinates": [ -84.105083073813702, 9.931331865558628 ] } },
{ "type": "Feature", "properties": { "cat": 419, "NOMBRE": "RINCON DEL VALLE", "TELEFONO": "2296-1001 / 800 BARCELO", "FAX": "2231-5924", "DIRECCION": "DEL COLEGIO DE MEDICOS. 50 M ESTE Y 75 SUR. SABANA SUR", "HABITACION": 42, "PAG_INTERN": "www.barcelo.com", "CATEGORIA_": 3, "CORREO": "ND" }, "geometry": { "type": "Point", "coordinates": [ -84.103716140258271, 9.931462704925472 ] } },
{ "type": "Feature", "properties": { "cat": 422, "NOMBRE": "RIO PARISMINA", "TELEFONO": "2236-1718", "FAX": "2236-1718", "DIRECCION": "BOCA PARISMINA", "HABITACION": 12, "PAG_INTERN": "www.riop.com", "CATEGORIA_": 3, "CORREO": "fish@riop.com" }, "geometry": { "type": "Point", "coordinates": [ -83.351078050499439, 10.306972228010221 ] } },
{ "type": "Feature", "properties": { "cat": 426, "NOMBRE": "ROSA DEL PASEO", "TELEFONO": "2257-3213 /  2257-3225", "FAX": "2223-2776", "DIRECCION": "PASEO COLON. ENTRE CALLES 28 Y 30", "HABITACION": 18, "PAG_INTERN": "www.rosadelpaseo.com", "CATEGORIA_": 3, "CORREO": "info@rosadelpaseo.com" }, "geometry": { "type": "Point", "coordinates": [ -84.092280129749923, 9.934985639015986 ] } },
{ "type": "Feature", "properties": { "cat": 427, "NOMBRE": "ROYAL DUTCH", "TELEFONO": "2222-1414 / 2223-1811", "FAX": "2221-4558", "DIRECCION": "AVENIDA CENTRAL Y 2. CALLE 4", "HABITACION": 30, "PAG_INTERN": "http://www.hotelroyaldutchcr.com/", "CATEGORIA_": 3, "CORREO": "info@hotelroyaldutchcr.com" }, "geometry": { "type": "Point", "coordinates": [ -84.080368282244279, 9.934334659031171 ] } },
{ "type": "Feature", "properties": { "cat": 432, "NOMBRE": "SAN GILDAR", "TELEFONO": "2289-8843 / 2228-2497", "FAX": "2228-6454", "DIRECCION": "250 MTS. OESTE DE LA ESQUINA NORESTE DEL C.R. COUNTRY CLUB", "HABITACION": 27, "PAG_INTERN": "www.hotelsangildar.com", "CATEGORIA_": 3, "CORREO": "info@hotelsangildar.com" }, "geometry": { "type": "Point", "coordinates": [ -84.106716156860045, 9.932750202681014 ] } },
{ "type": "Feature", "properties": { "cat": 435, "NOMBRE": "SAN JOSE", "TELEFONO": "256-2191", "FAX": "221-6684", "DIRECCION": "AVENIDA 2. CALLES 17 Y 19", "HABITACION": 24, "PAG_INTERN": "ND", "CATEGORIA_": 1, "CORREO": "ND" }, "geometry": { "type": "Point", "coordinates": [ -84.070357222972689, 9.931775344062023 ] } },
{ "type": "Feature", "properties": { "cat": 438, "NOMBRE": "SANTO TOMAS", "TELEFONO": "2255-0448", "FAX": "2222-3950", "DIRECCION": "AVENIDA 7. CALLES 3 Y 5", "HABITACION": 20, "PAG_INTERN": "www.hotelsantotomas.com", "CATEGORIA_": 3, "CORREO": "info@hotelsantotomas.com" }, "geometry": { "type": "Point", "coordinates": [ -84.076594914613835, 9.93760780799866 ] } },
{ "type": "Feature", "properties": { "cat": 443, "NOMBRE": "SILVER KING LODGE", "TELEFONO": "8309-8125", "FAX": "8369-7912", "DIRECCION": "LIMON", "HABITACION": 10, "PAG_INTERN": "www.silverkinglodge.com", "CATEGORIA_": 3, "CORREO": "hal@silverkinglodge.com" }, "geometry": { "type": "Point", "coordinates": [ -83.031453907732455, 9.992575232052928 ] } },
{ "type": "Feature", "properties": { "cat": 445, "NOMBRE": "SLEEP INN", "TELEFONO": "2222-0101", "FAX": "2221-2424", "DIRECCION": "AVENIDA 3. CALLE 9 Y 11", "HABITACION": 86, "PAG_INTERN": "www.sleepinnsanjose.com", "CATEGORIA_": 4, "CORREO": "ND" }, "geometry": { "type": "Point", "coordinates": [ -84.074872188543452, 9.935310678835044 ] } },
{ "type": "Feature", "properties": { "cat": 449, "NOMBRE": "SPORTSMENS LODGE", "TELEFONO": "2221-2533", "FAX": "2222-6700", "DIRECCION": "BARRIO OTOYA. 200 OESTE Y 25 SUR DE LA RAMPA DE EMERGENCIAS HOSPITAL CALDERON GUARDIA", "HABITACION": 21, "PAG_INTERN": "www.sportsmenscr.com", "CATEGORIA_": 2, "CORREO": "ND" }, "geometry": { "type": "Point", "coordinates": [ -84.067591923159128, 9.935139740644255 ] } },
{ "type": "Feature", "properties": { "cat": 451, "NOMBRE": "SUERRE", "TELEFONO": "2713-3000", "FAX": "2710-6376", "DIRECCION": "EN FRENTE DEL COLEGIO TECNICO. GUAPILES", "HABITACION": 68, "PAG_INTERN": "www.suerre.com", "CATEGORIA_": 4, "CORREO": "ND" }, "geometry": { "type": "Point", "coordinates": [ -83.781438729114129, 10.209124005327118 ] } },
{ "type": "Feature", "properties": { "cat": 457, "NOMBRE": "TALAMANCA", "TELEFONO": "2233-5033", "FAX": "2233-5420", "DIRECCION": "AVENIDA 2. CALLES 8 Y 10", "HABITACION": 50, "PAG_INTERN": "ND", "CATEGORIA_": 3, "CORREO": "ND" }, "geometry": { "type": "Point", "coordinates": [ -84.082940538224165, 9.933369710757992 ] } },
{ "type": "Feature", "properties": { "cat": 458, "NOMBRE": "TALAMANCA POCOCI", "TELEFONO": "2710-3030 / 2710-2161", "FAX": "2710-1708", "DIRECCION": "ENTRADA PRINCIPAL. GUAPILES", "HABITACION": 48, "PAG_INTERN": "ND", "CATEGORIA_": 3, "CORREO": "ND" }, "geometry": { "type": "Point", "coordinates": [ -83.788767028510932, 10.214388190876123 ] } },
{ "type": "Feature", "properties": { "cat": 478, "NOMBRE": "TORUMA", "TELEFONO": "2234-8186", "FAX": "2224-4085", "DIRECCION": "CALLE 29 Y 31 AVENIDA CENTRAL", "HABITACION": 19, "PAG_INTERN": "ND", "CATEGORIA_": 2, "CORREO": "ND" }, "geometry": { "type": "Point", "coordinates": [ -84.073390786169611, 9.933738788355877 ] } },
{ "type": "Feature", "properties": { "cat": 482, "NOMBRE": "TRYP COROBICI", "TELEFONO": "2232-8122", "FAX": "2231-5698", "DIRECCION": "AUTOPISTA GENERAL CANAS FRENTE A MAS X MENOS", "HABITACION": 203, "PAG_INTERN": "http://centralamerica.com/cr/hotel/corobici.htm", "CATEGORIA_": 4, "CORREO": "Information@CentralAmerica.Com" }, "geometry": { "type": "Point", "coordinates": [ -84.098532520311068, 9.938741243263351 ] } },
{ "type": "Feature", "properties": { "cat": 487, "NOMBRE": "VALLADOLID", "TELEFONO": "2260-2905 / 2260-2912", "FAX": "2260-2912", "DIRECCION": "400 METROS DE LA UNIVERSIDAD NACIONAL AV.7 CALLE 7", "HABITACION": 11, "PAG_INTERN": "www.hotelvalladolid.net", "CATEGORIA_": 3, "CORREO": "contactenos@hotelvalladolid.net" }, "geometry": { "type": "Point", "coordinates": [ -84.112924748973896, 10.000024284655353 ] } },
{ "type": "Feature", "properties": { "cat": 490, "NOMBRE": "VESUVIO", "TELEFONO": "2221-7586 / 2221-8321", "FAX": "2248-9442", "DIRECCION": "DE LA ENTRADA A EMERGENCIAS DEL HOSPITAL CALDERON GUARDIA 175 OESTE", "HABITACION": 20, "PAG_INTERN": "www.hotelvesuvio.com", "CATEGORIA_": 3, "CORREO": "info@hotelvesuvio.com" }, "geometry": { "type": "Point", "coordinates": [ -84.072082207842996, 9.934473270945139 ] } },
{ "type": "Feature", "properties": { "cat": 507, "NOMBRE": "VILLA TOURNON", "TELEFONO": "2233-6622 / 2223-0729", "FAX": "2222-5211", "DIRECCION": "150 MTS ESTE DEL PERIODICO LA REPUBLICA", "HABITACION": 80, "PAG_INTERN": "ND", "CATEGORIA_": 4, "CORREO": "ND" }, "geometry": { "type": "Point", "coordinates": [ -84.077142246464788, 9.942973893054683 ] } },
{ "type": "Feature", "properties": { "cat": 531, "NOMBRE": "ZONE BLUE", "TELEFONO": "2257-8624", "FAX": "2257-8624", "DIRECCION": "FRENTE AL INVU BARRIO AMON", "HABITACION": 11, "PAG_INTERN": "ND", "CATEGORIA_": 1, "CORREO": "ND" }, "geometry": { "type": "Point", "coordinates": [ -84.077271243103283, 9.937504164777289 ] } }
]
}
